[{ "_id" : { "$oid" : "5344d4cc57d8c9771f7d083d" }, "categories" : [ "Vietnamese", "Restaurants" ], "checkin" : { "_id" : { "$oid" : "5344d6d957d8c9771f7e683c" }, "checkin_info" : { "15-6" : 1, "11-4" : 1, "18-3" : 1, "11-0" : 2, "8-4" : 1, "14-3" : 1, "12-2" : 1, "12-0" : 1, "12-1" : 1 }, "type" : "checkin", "business_id" : "wAs-stW0HP6OXVXdpawnBQ" }, "city" : "Phoenix", "full_address" : "4808 N 35th Ave\nPhoenix, AZ 85017", "latitude" : 33.5081908, "longitude" : -112.1345446, "name" : "Dong-A", "review_count" : 7, "state" : "AZ" },{ "_id" : { "$oid" : "5344d4cc57d8c9771f7d084b" }, "categories" : [ "Fast Food", "Restaurants" ], "checkin" : { "_id" : { "$oid" : "5344d6d957d8c9771f7e6004" }, "checkin_info" : { "7-3" : 1, "7-2" : 1, "13-2" : 1, "11-0" : 1, "13-5" : 1, "16-5" : 2, "21-5" : 1, "6-4" : 1 }, "type" : "checkin", "business_id" : "nKrUueeLiIAeMH8nGhdh3A" }, "city" : "Phoenix", "full_address" : "3207 W Indian School Rd\nPhoenix, AZ 85017", "latitude" : 33.4949436, "longitude" : -112.128213, "name" : "McDonald's", "review_count" : 4, "state" : "AZ" },{ "_id" : { "$oid" : "5344d4cc57d8c9771f7d0857" }, "categories" : [ "Mexican", "Restaurants" ], "checkin" : { "_id" : { "$oid" : "5344d6d957d8c9771f7e6301" }, "checkin_info" : { "18-0" : 1, "0-5" : 1, "15-1" : 1, "12-1" : 1, "13-3" : 1, "17-6" : 1, "17-2" : 1, "14-5" : 1, "14-6" : 1, "12-5" : 1, "14-2" : 1, "11-0" : 1 }, "type" : "checkin", "business_id" : "nBqXILuCGVZ4-aPuRKjCCg" }, "city" : "Mesa", "full_address" : "1948 W Broadway Road\nMesa, AZ 85202", "latitude" : 33.407858, "longitude" : -111.8735293, "name" : "Jalisience Mexican Food", "review_count" : 4, "state" : "AZ" },{ "_id" : { "$oid" : "5344d4cc57d8c9771f7d0877" }, "categories" : [ "Bars", "American (New)", "Nightlife", "Restaurants" ], "checkin" : { "_id" : { "$oid" : "5344d6d957d8c9771f7e60a1" }, "checkin_info" : { "22-4" : 1, "2-3" : 1, "17-1" : 2, "19-5" : 2, "19-4" : 1, "20-3" : 5, "15-5" : 2, "18-2" : 2, "19-3" : 1, "21-1" : 1, "11-5" : 1, "16-0" : 1, "18-3" : 2, "17-3" : 2, "18-6" : 2, "21-5" : 2, "17-4" : 2, "17-5" : 3, "21-3" : 2 }, "type" : "checkin", "business_id" : "XRdwAqzuG_SwVFFlOzLmEQ" }, "city" : "Surprise", "full_address" : "Uptown Alley\n13525 N Litchfield Rd\nSurprise, AZ 85379", "latitude" : 33.6075896, "longitude" : -112.355665, "name" : "Red Embers Bar & Grill", "review_count" : 13, "state" : "AZ" },{ "_id" : { "$oid" : "5344d4cc57d8c9771f7d08a9" }, "categories" : [ "Sandwiches", "Pizza", "Chicken Wings", "Restaurants" ], "checkin" : { "_id" : { "$oid" : "5344d6d957d8c9771f7e61b6" }, "checkin_info" : { "10-1" : 1, "22-2" : 1, "19-4" : 1, "16-4" : 1, "1-6" : 1 }, "type" : "checkin", "business_id" : "Xqh9wCLzlt7ChkrV9BdR2Q" }, "city" : "Mesa", "full_address" : "1960 E Broadway Rd\nMesa, AZ 85204", "latitude" : 33.4083235, "longitude" : -111.7887354, "name" : "Domino's Pizza", "review_count" : 4, "state" : "AZ" },{ "_id" : { "$oid" : "5344d4cc57d8c9771f7d08b3" }, "categories" : [ "Fast Food", "Restaurants" ], "checkin" : { "_id" : { "$oid" : "5344d6d957d8c9771f7e6631" }, "checkin_info" : { "0-5" : 1, "0-6" : 1, "9-2" : 1, "19-5" : 1, "19-4" : 1, "14-0" : 1, "20-5" : 2, "22-5" : 1, "19-3" : 2, "19-0" : 1, "23-0" : 1, "11-0" : 1, "22-1" : 1, "23-5" : 1, "8-4" : 2, "8-0" : 1, "14-1" : 2, "12-0" : 1 }, "type" : "checkin", "business_id" : "S0mTCni_l8jK0cYj8K8dLA" }, "city" : "Mesa", "full_address" : "1105 S Val Vista Dr\nMesa, AZ 85204", "latitude" : 33.395303, "longitude" : -111.753355, "name" : "Jack in the Box", "review_count" : 3, "state" : "AZ" },{ "_id" : { "$oid" : "5344d4cc57d8c9771f7d08c2" }, "categories" : [ "Greek", "Mediterranean", "Restaurants" ], "checkin" : { "_id" : { "$oid" : "5344d6d957d8c9771f7e5b80" }, "checkin_info" : { "14-4" : 1, "15-2" : 1, "11-0" : 1, "11-3" : 1, "17-2" : 1 }, "type" : "checkin", "business_id" : "iZdynPTpKwbX5O3uLeC9Gg" }, "city" : "Glendale", "full_address" : "5932 W Bell Rd\nSte D-109\nGlendale, AZ 85308", "latitude" : 33.6403912, "longitude" : -112.1870284, "name" : "Chicago Gyros", "review_count" : 4, "state" : "AZ" },{ "_id" : { "$oid" : "5344d4cc57d8c9771f7d08d0" }, "categories" : [ "Middle Eastern", "Restaurants" ], "checkin" : { "_id" : { "$oid" : "5344d6da57d8c9771f7e72cf" }, "checkin_info" : { "19-6" : 1, "20-6" : 1, "18-1" : 1, "17-2" : 1, "14-4" : 1, "14-6" : 1, "14-1" : 1 }, "type" : "checkin", "business_id" : "LzreyGNkVTYw4JFuSxWstA" }, "city" : "Chandler", "full_address" : "961 W Ray Rd\nChandler, AZ 85225", "latitude" : 33.3205369, "longitude" : -111.8582011, "name" : "Jerusalem", "review_count" : 10, "state" : "AZ" },{ "_id" : { "$oid" : "5344d4cc57d8c9771f7d0900" }, "categories" : [ "Mexican", "Restaurants" ], "checkin" : { "_id" : { "$oid" : "5344d6d957d8c9771f7e68f7" }, "checkin_info" : { "0-5" : 1, "0-6" : 1, "7-1" : 1, "15-6" : 1, "11-5" : 1, "17-6" : 1, "22-3" : 1, "12-2" : 1 }, "type" : "checkin", "business_id" : "HHFjjljqoH5qs7Cy1i9R4A" }, "city" : "Phoenix", "full_address" : "1832 W Thunderbird Rd\nPhoenix, AZ 85023", "latitude" : 33.6113056, "longitude" : -112.0983488, "name" : "Filiberto's Mexican Food", "review_count" : 10, "state" : "AZ" },{ "_id" : { "$oid" : "5344d4cc57d8c9771f7d08b9" }, "categories" : [ "Mexican", "Restaurants" ], "checkin" : { "_id" : { "$oid" : "5344d6db57d8c9771f7e838b" }, "checkin_info" : { "18-5" : 2, "19-4" : 1, "20-3" : 4, "19-3" : 3, "19-2" : 1, "18-0" : 2, "22-3" : 5, "13-6" : 2, "18-6" : 1, "17-0" : 1, "21-1" : 1, "21-3" : 5 }, "type" : "checkin", "business_id" : "ZXlO9S1MG2I-L5uLSF-nPA" }, "city" : "Scottsdale", "full_address" : "13610 N Scottsdale Rd\nScottsdale, AZ 85260", "latitude" : 33.6097856, "longitude" : -111.927307, "name" : "Brennan's", "review_count" : 12, "state" : "AZ" },{ "_id" : { "$oid" : "5344d4cc57d8c9771f7d08c6" }, "categories" : [ "Mexican", "Restaurants" ], "checkin" : { "_id" : { "$oid" : "5344d6da57d8c9771f7e7a49" }, "checkin_info" : { "20-2" : 3, "19-0" : 2, "18-2" : 2, "17-3" : 1, "11-0" : 1, "18-6" : 1, "17-0" : 1, "14-4" : 1, "14-5" : 1, "21-6" : 1, "10-2" : 1, "12-1" : 1 }, "type" : "checkin", "business_id" : "UPbkeVTJR6C-1I7sCuUrmw" }, "city" : "Phoenix", "full_address" : "4705 E Southern Ave\nPhoenix, AZ 85073", "latitude" : 33.3927485, "longitude" : -111.9806909, "name" : "El Mas Sabroso Mexican Food", "review_count" : 9, "state" : "AZ" },{ "_id" : { "$oid" : "5344d4cc57d8c9771f7d08cf" }, "categories" : [ "Fast Food", "Restaurants" ], "checkin" : { "_id" : { "$oid" : "5344d6d957d8c9771f7e651c" }, "checkin_info" : { "0-5" : 1, "2-6" : 1, "2-5" : 1, "1-1" : 1, "1-5" : 1, "9-0" : 1, "11-6" : 1 }, "type" : "checkin", "business_id" : "wqLEZpKy3qfE372OPAB4Pg" }, "city" : "Apache Junction", "full_address" : "2600 W Apache Trl\nApache Junction, AZ 85120", "latitude" : 33.415885, "longitude" : -111.574489, "name" : "Jack in the Box", "review_count" : 3, "state" : "AZ" },{ "_id" : { "$oid" : "5344d4cc57d8c9771f7d08e3" }, "categories" : [ "Pizza", "Restaurants" ], "checkin" : { "_id" : { "$oid" : "5344d6d857d8c9771f7e5a20" }, "checkin_info" : { "15-5" : 3, "15-6" : 1, "18-0" : 1, "18-1" : 1, "18-3" : 1, "18-4" : 1, "18-5" : 1, "18-6" : 1, "14-5" : 3, "14-6" : 1, "14-2" : 1, "19-4" : 1, "19-6" : 1, "19-1" : 1, "19-3" : 1, "11-5" : 1, "13-2" : 1, "11-6" : 2, "13-5" : 1, "12-5" : 1, "12-3" : 1, "9-5" : 1, "20-5" : 1, "20-4" : 2, "17-5" : 2, "16-6" : 1, "16-5" : 3, "21-5" : 1 }, "type" : "checkin", "business_id" : "HghAgkxoEpUNZNQbAY485A" }, "city" : "Phoenix", "full_address" : "3329 E Bell Rd\nSte 15\nPhoenix, AZ 85032", "latitude" : 33.639969, "longitude" : -112.010011, "name" : "Chuck E Cheese's", "review_count" : 5, "state" : "AZ" },{ "_id" : { "$oid" : "5344d4cc57d8c9771f7d08f6" }, "categories" : [ "Burgers", "Fast Food", "Restaurants" ], "checkin" : { "_id" : { "$oid" : "5344d6da57d8c9771f7e7c43" }, "checkin_info" : { "13-5" : 1, "8-2" : 1, "12-2" : 1, "15-2" : 1, "22-5" : 2, "18-4" : 1, "20-3" : 1, "0-3" : 1, "19-1" : 1, "13-0" : 1, "13-6" : 1, "11-3" : 1, "12-4" : 1, "6-2" : 1, "5-3" : 1, "7-3" : 3, "7-2" : 2, "7-1" : 5, "7-0" : 4, "20-5" : 1, "7-5" : 1, "7-4" : 1, "17-2" : 1, "16-4" : 1, "17-0" : 1, "8-4" : 1, "8-6" : 1, "8-1" : 1, "21-2" : 1 }, "type" : "checkin", "business_id" : "SkiQh32UtfsRBj_l7cGwOQ" }, "city" : "Phoenix", "full_address" : "3323 N 24th St\nPhoenix, AZ 85016", "latitude" : 33.4866, "longitude" : -112.02967, "name" : "Mcdonald's", "review_count" : 3, "state" : "AZ" },{ "_id" : { "$oid" : "5344d4cc57d8c9771f7d08f9" }, "categories" : [ "Sandwiches", "Restaurants" ], "checkin" : { "_id" : { "$oid" : "5344d6da57d8c9771f7e76a2" }, "checkin_info" : { "9-2" : 1, "9-5" : 1, "11-5" : 1, "13-2" : 1, "13-6" : 1, "13-4" : 1, "12-4" : 1, "8-1" : 1, "10-6" : 1 }, "type" : "checkin", "business_id" : "Q5sAi0_PmyUMEA0QZRzWdQ" }, "city" : "Gilbert", "full_address" : "2487 S Gilbert Rd\nGilbert, AZ 85296", "latitude" : 33.3175083, "longitude" : -111.7896821, "name" : "Subway", "review_count" : 4, "state" : "AZ" },{ "_id" : { "$oid" : "5344d4cc57d8c9771f7d08fb" }, "categories" : [ "Barbeque", "Restaurants" ], "checkin" : { "_id" : { "$oid" : "5344d6d957d8c9771f7e68e6" }, "checkin_info" : { "9-5" : 2, "9-6" : 2, "17-4" : 1, "8-5" : 2, "12-5" : 2, "8-2" : 1 }, "type" : "checkin", "business_id" : "mkvWFODsaXHe5MXAyDnRWw" }, "city" : "Phoenix", "full_address" : "3128 E Cactus Rd\nPhoenix, AZ 85032", "latitude" : 33.5973316, "longitude" : -112.0140001, "name" : "Hammered Hog", "review_count" : 3, "state" : "AZ" },{ "_id" : { "$oid" : "5344d4cc57d8c9771f7d0986" }, "categories" : [ "Japanese", "Restaurants" ], "checkin" : { "_id" : { "$oid" : "5344d6d957d8c9771f7e699a" }, "checkin_info" : { "11-0" : 1, "20-1" : 1, "15-5" : 1, "20-3" : 1, "19-1" : 2, "20-4" : 1, "19-3" : 2, "15-6" : 1, "16-3" : 2, "11-6" : 1, "17-3" : 1, "17-2" : 1, "16-4" : 1, "19-4" : 2, "18-4" : 1, "14-6" : 1, "12-3" : 1, "12-0" : 3, "18-5" : 1 }, "type" : "checkin", "business_id" : "UqXNc416VPZrY09eMQY_eA" }, "city" : "Mesa", "full_address" : "1445 W Southern Ave\nSte 2158\nMesa, AZ 85202", "latitude" : 33.3892, "longitude" : -111.86058, "name" : "Sarku Japan", "review_count" : 9, "state" : "AZ" },{ "_id" : { "$oid" : "5344d4cc57d8c9771f7d098a" }, "categories" : [ "Burgers", "Fast Food", "Restaurants" ], "checkin" : { "_id" : { "$oid" : "5344d6da57d8c9771f7e762a" }, "checkin_info" : { "15-3" : 1, "3-4" : 1, "1-4" : 1, "7-5" : 1, "18-3" : 1, "21-6" : 1, "21-4" : 1, "21-5" : 1, "13-0" : 1, "8-0" : 1, "12-3" : 1 }, "type" : "checkin", "business_id" : "bE_0Ma3nEBd9sjcZKlRLKQ" }, "city" : "Mesa", "full_address" : "909 N Dobson Rd\nMesa, AZ 85201", "latitude" : 33.43065, "longitude" : -111.843711, "name" : "McDonald's", "review_count" : 3, "state" : "AZ" },{ "_id" : { "$oid" : "5344d4cc57d8c9771f7d09a4" }, "categories" : [ "American (Traditional)", "Restaurants" ], "checkin" : { "_id" : { "$oid" : "5344d6da57d8c9771f7e78f3" }, "checkin_info" : { "20-1" : 1, "3-6" : 1, "20-3" : 1, "16-1" : 1, "19-4" : 1, "17-4" : 1, "12-0" : 1 }, "type" : "checkin", "business_id" : "N9iPqBRI47bewLAeKBlkIg" }, "city" : "Chandler", "full_address" : "1949 W Ray Rd\nSte 11\nChandler, AZ 85224", "latitude" : 33.319395, "longitude" : -111.874965, "name" : "Waterfront Grill", "review_count" : 3, "state" : "AZ" },{ "_id" : { "$oid" : "5344d4cc57d8c9771f7d09b1" }, "categories" : [ "Mexican", "Restaurants" ], "checkin" : { "_id" : { "$oid" : "5344d6db57d8c9771f7e80d0" }, "checkin_info" : { "13-3" : 1, "15-0" : 1, "20-3" : 1, "15-2" : 1, "15-4" : 2, "11-5" : 1, "18-1" : 1, "17-3" : 1, "13-6" : 1, "12-4" : 1, "8-2" : 1, "11-0" : 1 }, "type" : "checkin", "business_id" : "vGI3QO3wDBuQ2fPXVJmL9A" }, "city" : "Mesa", "full_address" : "4353 E University Drive\nMesa, AZ 85205", "latitude" : 33.4227699, "longitude" : -111.7374739, "name" : "Los Betos Mexican Food", "review_count" : 4, "state" : "AZ" },{ "_id" : { "$oid" : "5344d4cc57d8c9771f7d09b9" }, "categories" : [ "Vegetarian", "American (New)", "Mediterranean", "Restaurants" ], "checkin" : { "_id" : { "$oid" : "5344d6d957d8c9771f7e6c79" }, "checkin_info" : { "11-3" : 2, "15-3" : 1, "15-2" : 1, "15-5" : 1, "18-0" : 1, "18-2" : 1, "18-3" : 2, "18-5" : 2, "14-6" : 2, "19-5" : 1, "16-5" : 2, "19-0" : 1, "11-5" : 6, "13-2" : 1, "11-6" : 2, "13-6" : 1, "13-5" : 2, "11-2" : 2, "12-6" : 1, "12-4" : 3, "12-3" : 1, "12-1" : 1, "20-1" : 1, "20-5" : 1, "16-2" : 1, "16-3" : 2, "17-5" : 1, "17-2" : 1, "17-0" : 1, "8-3" : 1, "10-4" : 2, "10-5" : 1, "11-0" : 1 }, "type" : "checkin", "business_id" : "NqA43LG4PCPEDQT672zMNA" }, "city" : "Mesa", "full_address" : "1652 S. Val Vista Dr.\nSuite 128\nMesa, AZ 85204", "latitude" : 33.3853255, "longitude" : -111.7558768, "name" : "Pita Jungle", "review_count" : 12, "state" : "AZ" },{ "_id" : { "$oid" : "5344d4cc57d8c9771f7d09c0" }, "categories" : [ "Bars", "American (Traditional)", "American (New)", "Nightlife", "Restaurants" ], "checkin" : { "_id" : { "$oid" : "5344d6da57d8c9771f7e7522" }, "checkin_info" : { "17-6" : 1, "15-4" : 1, "18-0" : 1, "18-1" : 1, "18-3" : 1, "18-4" : 1, "18-6" : 4, "17-3" : 1, "14-6" : 1, "19-5" : 1, "19-6" : 2, "11-4" : 1, "13-1" : 1, "11-6" : 1, "13-6" : 1, "11-3" : 1, "13-4" : 1, "12-4" : 1, "12-2" : 1, "12-0" : 1, "20-6" : 2, "16-3" : 1, "17-5" : 1, "13-0" : 2, "16-6" : 1, "17-2" : 1, "17-1" : 1, "21-3" : 1 }, "type" : "checkin", "business_id" : "dVRRT0zVk8eFNx0Wv6gMmg" }, "city" : "Phoenix", "full_address" : "3039 W Agua Fria Frwy\nPhoenix, AZ 85037", "latitude" : 33.482987, "longitude" : -112.263704, "name" : "Chili's Grill & Bar", "review_count" : 5, "state" : "AZ" },{ "_id" : { "$oid" : "5344d4cc57d8c9771f7d09cd" }, "categories" : [ "Breakfast & Brunch", "American (New)", "Restaurants" ], "checkin" : { "_id" : { "$oid" : "5344d6d957d8c9771f7e5ece" }, "checkin_info" : { "9-1" : 1, "9-0" : 2, "9-5" : 2, "5-5" : 1, "9-6" : 1, "5-2" : 1, "11-4" : 1, "13-1" : 1, "11-6" : 4, "11-0" : 1, "12-6" : 1, "10-1" : 1, "8-6" : 1, "8-1" : 1 }, "type" : "checkin", "business_id" : "os_r5fCkmjeP980CLv20MQ" }, "city" : "Phoenix", "full_address" : "10240 N 27th Ave\nPhoenix, AZ 85051", "latitude" : 33.579999, "longitude" : -112.118976, "name" : "The Place", "review_count" : 9, "state" : "AZ" },{ "_id" : { "$oid" : "5344d4cc57d8c9771f7d09ef" }, "categories" : [ "Vietnamese", "Restaurants" ], "checkin" : { "_id" : { "$oid" : "5344d6da57d8c9771f7e6fb1" }, "checkin_info" : { "9-2" : 1, "20-4" : 1, "16-3" : 1, "13-5" : 1, "10-1" : 1, "12-4" : 1, "12-2" : 1 }, "type" : "checkin", "business_id" : "sUf7fRBqsjLddnj_FW4mag" }, "city" : "Phoenix", "full_address" : "4141 N 35th Ave\nSte 11\nPhoenix, AZ 85017", "latitude" : 33.4965366, "longitude" : -112.1336024, "name" : "Pho Binh Minh", "review_count" : 4, "state" : "AZ" },{ "_id" : { "$oid" : "5344d4cc57d8c9771f7d0a04" }, "categories" : [ "Restaurants" ], "checkin" : { "_id" : { "$oid" : "5344d6da57d8c9771f7e6d35" }, "checkin_info" : { "12-2" : 1, "15-2" : 1, "8-0" : 1, "8-2" : 1, "8-3" : 1 }, "type" : "checkin", "business_id" : "uNzmm8lpdwOggqQ3Vu7vMA" }, "city" : "Phoenix", "full_address" : "1535 W Jefferson Street\nPhoenix, AZ 85007", "latitude" : 33.446848, "longitude" : -112.0930104, "name" : "Joy's Cafe", "review_count" : 4, "state" : "AZ" },{ "_id" : { "$oid" : "5344d4cc57d8c9771f7d0a5e" }, "categories" : [ "Mexican", "Food Stands", "Restaurants" ], "checkin" : { "_id" : { "$oid" : "5344d6d957d8c9771f7e67e7" }, "checkin_info" : { "9-6" : 1, "19-6" : 1, "15-5" : 1, "12-4" : 1, "21-0" : 1, "14-1" : 1, "6-1" : 1 }, "type" : "checkin", "business_id" : "SAIgLz6EI7vJ9AkxjvpIeg" }, "city" : "Phoenix", "full_address" : "7430 W Van Buren\nPhoenix, AZ 85043", "latitude" : 33.4520189829174, "longitude" : -112.220578193665, "name" : "Tacos La Lomita", "review_count" : 3, "state" : "AZ" },{ "_id" : { "$oid" : "5344d4cc57d8c9771f7d0a68" }, "categories" : [ "Pizza", "Restaurants" ], "checkin" : { "_id" : { "$oid" : "5344d6da57d8c9771f7e78a0" }, "checkin_info" : { "17-2" : 1, "20-4" : 1, "13-5" : 1, "12-3" : 1 }, "type" : "checkin", "business_id" : "WYf4exS-QvyaqUyn9_-5Bg" }, "city" : "Surprise", "full_address" : "13065 W Grand Ave\nSte 4\nSurprise, AZ 85374", "latitude" : 33.6313451, "longitude" : -112.3412674, "name" : "U S Pizza", "review_count" : 3, "state" : "AZ" },{ "_id" : { "$oid" : "5344d4cc57d8c9771f7d0a94" }, "categories" : [ "Sandwiches", "Restaurants" ], "checkin" : { "_id" : { "$oid" : "5344d6da57d8c9771f7e6eb6" }, "checkin_info" : { "15-1" : 1, "15-5" : 1, "18-2" : 1, "22-1" : 1, "17-3" : 1, "14-6" : 1, "14-0" : 1, "14-1" : 1, "19-4" : 3, "19-0" : 1, "19-2" : 1, "13-2" : 1, "13-0" : 1, "13-6" : 1, "13-5" : 2, "11-2" : 1, "12-6" : 2, "12-5" : 1, "12-0" : 2, "9-1" : 1, "20-0" : 1, "17-5" : 2, "17-4" : 1, "16-6" : 1, "16-5" : 1, "10-6" : 1 }, "type" : "checkin", "business_id" : "7dnH0aZnfc2HxSbJkBcdZw" }, "city" : "Chandler", "full_address" : "3111 W. Chandler Blvd.\nSte FF-236\nChandler, AZ 85226", "latitude" : 33.30549, "longitude" : -111.8952739, "name" : "Paradise Bakery And Cafe", "review_count" : 3, "state" : "AZ" },{ "_id" : { "$oid" : "5344d4cc57d8c9771f7d0aae" }, "categories" : [ "Chinese", "Restaurants" ], "checkin" : { "_id" : { "$oid" : "5344d6da57d8c9771f7e7609" }, "checkin_info" : { "18-6" : 1, "20-1" : 1, "19-4" : 1, "11-2" : 1, "20-5" : 1, "19-5" : 1, "17-1" : 1, "17-0" : 1, "21-1" : 1 }, "type" : "checkin", "business_id" : "yCQ2KC8OETCyQDCRw7mXrg" }, "city" : "Phoenix", "full_address" : "10720 W Indian School Rd\nPhoenix, AZ 85037", "latitude" : 33.493973, "longitude" : -112.2920313, "name" : "Golden China", "review_count" : 10, "state" : "AZ" },{ "_id" : { "$oid" : "5344d4cc57d8c9771f7d0b00" }, "categories" : [ "Sandwiches", "Pizza", "Chicken Wings", "Restaurants" ], "checkin" : { "_id" : { "$oid" : "5344d6db57d8c9771f7e7d84" }, "checkin_info" : { "19-4" : 1, "19-3" : 1, "18-0" : 1, "18-6" : 1, "12-2" : 1, "14-2" : 1 }, "type" : "checkin", "business_id" : "7lB6Yr3KCe9DVnbs1ihpMw" }, "city" : "Goodyear", "full_address" : "14175 W Indian School Rd\nSte A3\nGoodyear, AZ 85395", "latitude" : 33.4841824, "longitude" : -112.3643022, "name" : "Domino's Pizza", "review_count" : 5, "state" : "AZ" }]
